{
  "updated": "2026-02-21T06:55:10Z",
  "update_interval_hours": 6,
  "stations": [
    {
      "id": "GBIF1",
      "name": "Gunboat Island, FL",
      "has_model": false,
      "has_realtime": true,
      "status": "active",
      "current": {
        "do": null,
        "temp": 23.2,
        "sal": 31.1
      },
      "last_observation": "2026-02-21",
      "days_of_data": 46,
      "lat": 25.378,
      "lon": -81.029
    },
    {
      "id": "TCVF1",
      "name": "Trout Cove, FL",
      "has_model": false,
      "has_realtime": true,
      "status": "active",
      "current": {
        "do": null,
        "temp": 26.0,
        "sal": 31.4
      },
      "last_observation": "2026-02-21",
      "days_of_data": 46,
      "lat": 25.213,
      "lon": -80.533
    },
    {
      "id": "41069",
      "name": "Ponce de Leon Inlet, FL (PNC)",
      "has_model": false,
      "has_realtime": true,
      "status": "active",
      "current": {
        "do": null,
        "temp": 17.4,
        "sal": 35.3
      },
      "last_observation": "2026-02-21",
      "days_of_data": 46,
      "lat": 29.289,
      "lon": -80.803
    },
    {
      "id": "41068",
      "name": "Fort Pierce, FL (FTP)",
      "has_model": false,
      "has_realtime": true,
      "status": "active",
      "current": {
        "do": null,
        "temp": 22.4,
        "sal": 36.4
      },
      "last_observation": "2026-02-21",
      "days_of_data": 45,
      "lat": 27.593,
      "lon": -80.189
    },
    {
      "id": "BNKF1",
      "name": "Butternut Key, FL",
      "has_model": false,
      "has_realtime": true,
      "status": "active",
      "current": {
        "do": null,
        "temp": 24.9,
        "sal": 31.9
      },
      "last_observation": "2026-02-21",
      "days_of_data": 46,
      "lat": 25.087,
      "lon": -80.519
    },
    {
      "id": "KATA1",
      "name": "KATA1",
      "has_model": true,
      "has_realtime": false,
      "status": "historical_only",
      "current": null,
      "predictions": null
    },
    {
      "id": "BWSF1",
      "name": "Blackwater Sound, FL",
      "has_model": false,
      "has_realtime": true,
      "status": "active",
      "current": {
        "do": null,
        "temp": 25.1,
        "sal": 31.9
      },
      "last_observation": "2026-02-21",
      "days_of_data": 46,
      "lat": 25.178,
      "lon": -80.438
    },
    {
      "id": "LRIF1",
      "name": "Lane River, FL ",
      "has_model": false,
      "has_realtime": true,
      "status": "active",
      "current": {
        "do": null,
        "temp": 26.0,
        "sal": 20.8
      },
      "last_observation": "2026-02-21",
      "days_of_data": 46,
      "lat": 25.284,
      "lon": -80.894
    },
    {
      "id": "MDKF1",
      "name": "Middle Key, FL",
      "has_model": false,
      "has_realtime": true,
      "status": "active",
      "current": {
        "do": null,
        "temp": 25.7,
        "sal": 32.9
      },
      "last_observation": "2026-02-21",
      "days_of_data": 46,
      "lat": 25.289,
      "lon": -80.396
    },
    {
      "id": "SREF1",
      "name": "Shark River, FL",
      "has_model": false,
      "has_realtime": true,
      "status": "active",
      "current": {
        "do": null,
        "temp": 24.0,
        "sal": 35.0
      },
      "last_observation": "2026-02-21",
      "days_of_data": 46,
      "lat": 25.352,
      "lon": -81.1
    },
    {
      "id": "THRF1",
      "name": "Thursday Point, FL",
      "has_model": false,
      "has_realtime": true,
      "status": "active",
      "current": {
        "do": null,
        "temp": 24.4,
        "sal": 32.1
      },
      "last_observation": "2026-02-21",
      "days_of_data": 46,
      "lat": 25.203,
      "lon": -80.372
    },
    {
      "id": "FRKF1",
      "name": "FRKF1",
      "has_model": true,
      "has_realtime": false,
      "status": "historical_only",
      "current": null,
      "predictions": null
    },
    {
      "id": "TBYF1",
      "name": "Terrapin Bay, FL",
      "has_model": false,
      "has_realtime": true,
      "status": "active",
      "current": {
        "do": null,
        "temp": 26.1,
        "sal": 36.2
      },
      "last_observation": "2026-02-21",
      "days_of_data": 46,
      "lat": 25.155,
      "lon": -80.722
    },
    {
      "id": "CWAF1",
      "name": "Clear Water Pass, FL ",
      "has_model": false,
      "has_realtime": true,
      "status": "active",
      "current": {
        "do": null,
        "temp": 25.4,
        "sal": 31.0
      },
      "last_observation": "2026-02-21",
      "days_of_data": 46,
      "lat": 25.297,
      "lon": -81.013
    },
    {
      "id": "BSCA1",
      "name": "BSCA1",
      "has_model": true,
      "has_realtime": false,
      "status": "historical_only",
      "current": null,
      "predictions": null
    },
    {
      "id": "CWWT2",
      "name": "Copano Bay West, Mission-Aransas Reserve, TX",
      "has_model": false,
      "has_realtime": true,
      "status": "active",
      "current": {
        "do": 7.27,
        "temp": 20.0,
        "sal": 35.4
      },
      "last_observation": "2026-02-12",
      "days_of_data": 2,
      "currently_hypoxic": false,
      "lat": 28.084,
      "lon": -97.201
    },
    {
      "id": "TRRF1",
      "name": "Taylor River, FL",
      "has_model": false,
      "has_realtime": true,
      "status": "active",
      "current": {
        "do": null,
        "temp": 26.2,
        "sal": 23.5
      },
      "last_observation": "2026-02-21",
      "days_of_data": 46,
      "lat": 25.217,
      "lon": -80.65
    },
    {
      "id": "MUKF1",
      "name": "Murray Key, FL",
      "has_model": false,
      "has_realtime": true,
      "status": "active",
      "current": {
        "do": null,
        "temp": 23.7,
        "sal": 38.4
      },
      "last_observation": "2026-02-21",
      "days_of_data": 46,
      "lat": 25.106,
      "lon": -80.942
    },
    {
      "id": "GBTF1",
      "name": "Garfield Bight, FL",
      "has_model": false,
      "has_realtime": true,
      "status": "active",
      "current": {
        "do": null,
        "temp": 25.8,
        "sal": 41.6
      },
      "last_observation": "2026-02-21",
      "days_of_data": 46,
      "lat": 25.167,
      "lon": -80.801
    },
    {
      "id": "LMDF1",
      "name": "Little Madeira, FL",
      "has_model": false,
      "has_realtime": true,
      "status": "active",
      "current": {
        "do": null,
        "temp": 25.5,
        "sal": 26.6
      },
      "last_observation": "2026-02-21",
      "days_of_data": 46,
      "lat": 25.176,
      "lon": -80.633
    },
    {
      "id": "BOBF1",
      "name": "Bob Allen, FL",
      "has_model": false,
      "has_realtime": true,
      "status": "active",
      "current": {
        "do": null,
        "temp": 24.4,
        "sal": 36.1
      },
      "last_observation": "2026-02-21",
      "days_of_data": 46,
      "lat": 25.027,
      "lon": -80.681
    },
    {
      "id": "BDVF1",
      "name": "Broad River, FL",
      "has_model": false,
      "has_realtime": true,
      "status": "active",
      "current": {
        "do": null,
        "temp": 25.1,
        "sal": 20.7
      },
      "last_observation": "2026-02-21",
      "days_of_data": 46,
      "lat": 25.478,
      "lon": -80.989
    },
    {
      "id": "GBCM6",
      "name": "Bayou Cumbest, Grand Bay Reserve, MS",
      "has_model": false,
      "has_realtime": true,
      "status": "active",
      "current": {
        "do": 7.33,
        "temp": 19.7,
        "sal": 28.3
      },
      "last_observation": "2026-02-12",
      "days_of_data": 3,
      "currently_hypoxic": false,
      "lat": 30.384,
      "lon": -88.436
    },
    {
      "id": "CNBF1",
      "name": "Cannon Bay, FL",
      "has_model": false,
      "has_realtime": true,
      "status": "active",
      "current": {
        "do": null,
        "temp": 26.4,
        "sal": 33.4
      },
      "last_observation": "2026-02-21",
      "days_of_data": 46,
      "lat": 25.702,
      "lon": -81.186
    },
    {
      "id": "ADBF1",
      "name": "Dry Bar, Apalachicola Reserve, FL",
      "has_model": false,
      "has_realtime": true,
      "status": "active",
      "current": {
        "do": 8.29,
        "temp": 20.5,
        "sal": 23.8
      },
      "last_observation": "2026-02-21",
      "days_of_data": 14,
      "currently_hypoxic": false,
      "lat": 29.675,
      "lon": -85.058
    },
    {
      "id": "MBLA1",
      "name": "MBLA1",
      "has_model": true,
      "has_realtime": false,
      "status": "historical_only",
      "current": null,
      "predictions": null
    },
    {
      "id": "JKYF1",
      "name": "Johnson Key, FL",
      "has_model": false,
      "has_realtime": true,
      "status": "active",
      "current": {
        "do": null,
        "temp": 24.9,
        "sal": 38.2
      },
      "last_observation": "2026-02-21",
      "days_of_data": 46,
      "lat": 25.053,
      "lon": -80.904
    },
    {
      "id": "NRRF1",
      "name": "North River, FL",
      "has_model": false,
      "has_realtime": true,
      "status": "active",
      "current": {
        "do": null,
        "temp": 25.9,
        "sal": 23.4
      },
      "last_observation": "2026-02-21",
      "days_of_data": 46,
      "lat": 25.338,
      "lon": -80.911
    },
    {
      "id": "HCEF1",
      "name": "Highway Creek, FL",
      "has_model": false,
      "has_realtime": true,
      "status": "active",
      "current": {
        "do": null,
        "temp": 26.1,
        "sal": 31.0
      },
      "last_observation": "2026-02-21",
      "days_of_data": 46,
      "lat": 25.254,
      "lon": -80.444
    },
    {
      "id": "WIWF1",
      "name": "Willy Willy, FL",
      "has_model": false,
      "has_realtime": true,
      "status": "active",
      "current": {
        "do": null,
        "temp": 24.8,
        "sal": 25.3
      },
      "last_observation": "2026-02-21",
      "days_of_data": 46,
      "lat": 25.587,
      "lon": -81.044
    },
    {
      "id": "MNBF1",
      "name": "Manatee Bay, FL",
      "has_model": false,
      "has_realtime": true,
      "status": "active",
      "current": {
        "do": null,
        "temp": 25.4,
        "sal": 31.5
      },
      "last_observation": "2026-02-21",
      "days_of_data": 46,
      "lat": 25.239,
      "lon": -80.422
    },
    {
      "id": "JBYF1",
      "name": "Joe Bay, FL",
      "has_model": false,
      "has_realtime": true,
      "status": "active",
      "current": {
        "do": null,
        "temp": 25.9,
        "sal": 29.6
      },
      "last_observation": "2026-02-21",
      "days_of_data": 45,
      "lat": 25.224,
      "lon": -80.541
    },
    {
      "id": "HREF1",
      "name": "Harney River, FL",
      "has_model": false,
      "has_realtime": true,
      "status": "active",
      "current": {
        "do": null,
        "temp": 23.6,
        "sal": 33.0
      },
      "last_observation": "2026-02-21",
      "days_of_data": 46,
      "lat": 25.424,
      "lon": -81.06
    },
    {
      "id": "CRTA1",
      "name": "CRTA1",
      "has_model": true,
      "has_realtime": false,
      "status": "historical_only",
      "current": null,
      "predictions": null
    },
    {
      "id": "APQF1",
      "name": "APQF1",
      "has_model": true,
      "has_realtime": false,
      "status": "historical_only",
      "current": null,
      "predictions": null
    },
    {
      "id": "CANF1",
      "name": "Cane Patch, FL",
      "has_model": false,
      "has_realtime": true,
      "status": "active",
      "current": {
        "do": null,
        "temp": 24.3,
        "sal": 11.6
      },
      "last_observation": "2026-02-21",
      "days_of_data": 46,
      "lat": 25.422,
      "lon": -80.942
    },
    {
      "id": "GBHM6",
      "name": "Bayou Heron, Grand Bay Reserve, MS",
      "has_model": true,
      "has_realtime": true,
      "status": "active",
      "current": {
        "do": 3.08,
        "temp": 20.2,
        "sal": 20.7
      },
      "last_observation": "2026-02-21",
      "days_of_data": 46,
      "currently_hypoxic": false,
      "predictions": {
        "1d": {
          "prob": 0.0379,
          "risk": "low"
        },
        "3d": {
          "prob": 0.1021,
          "risk": "low"
        },
        "5d": {
          "prob": 0.15,
          "risk": "low"
        },
        "7d": {
          "prob": 0.1515,
          "risk": "low"
        }
      },
      "metrics": {
        "1": {
          "auc_roc": 0,
          "auc_pr": 0,
          "f1": 0.0
        },
        "3": {
          "auc_roc": 0,
          "auc_pr": 0,
          "f1": 0.0
        },
        "5": {
          "auc_roc": 0,
          "auc_pr": 0,
          "f1": 0.0
        },
        "7": {
          "auc_roc": 0,
          "auc_pr": 0,
          "f1": 0.0
        }
      },
      "lat": 30.418,
      "lon": -88.405
    },
    {
      "id": "WWEF1",
      "name": "Whitewater Bay-East, FL",
      "has_model": false,
      "has_realtime": true,
      "status": "active",
      "current": {
        "do": null,
        "temp": 25.9,
        "sal": 17.0
      },
      "last_observation": "2026-02-21",
      "days_of_data": 46,
      "lat": 25.232,
      "lon": -80.938
    },
    {
      "id": "DKKF1",
      "name": "Duck Key, FL",
      "has_model": false,
      "has_realtime": true,
      "status": "active",
      "current": {
        "do": null,
        "temp": 25.3,
        "sal": 31.7
      },
      "last_observation": "2026-02-21",
      "days_of_data": 46,
      "lat": 25.18,
      "lon": -80.49
    },
    {
      "id": "LSNF1",
      "name": "Long Sound, FL",
      "has_model": false,
      "has_realtime": true,
      "status": "active",
      "current": {
        "do": null,
        "temp": 25.6,
        "sal": 31.0
      },
      "last_observation": "2026-02-21",
      "days_of_data": 46,
      "lat": 25.235,
      "lon": -80.457
    },
    {
      "id": "MQMT2",
      "name": "Mesquite Bay, Mission-Aransas Reserve, TX",
      "has_model": false,
      "has_realtime": true,
      "status": "active",
      "current": {
        "do": 5.98,
        "temp": 22.2,
        "sal": 32.4
      },
      "last_observation": "2026-02-20",
      "days_of_data": 46,
      "currently_hypoxic": false,
      "lat": 28.138,
      "lon": -96.829
    },
    {
      "id": "CWQT2",
      "name": "Copano Bay East, Mission-Aransas Reserve, TX",
      "has_model": false,
      "has_realtime": true,
      "status": "active",
      "current": {
        "do": 7.34,
        "temp": 21.0,
        "sal": 33.1
      },
      "last_observation": "2026-02-17",
      "days_of_data": 42,
      "currently_hypoxic": false,
      "lat": 28.132,
      "lon": -97.034
    },
    {
      "id": "LBSF1",
      "name": "Little Blackwater, FL",
      "has_model": false,
      "has_realtime": true,
      "status": "active",
      "current": {
        "do": null,
        "temp": 25.4,
        "sal": 30.6
      },
      "last_observation": "2026-02-21",
      "days_of_data": 46,
      "lat": 25.214,
      "lon": -80.432
    },
    {
      "id": "WPLF1",
      "name": "Watson Place, FL",
      "has_model": false,
      "has_realtime": true,
      "status": "active",
      "current": {
        "do": null,
        "temp": 25.0,
        "sal": 37.1
      },
      "last_observation": "2026-02-21",
      "days_of_data": 40,
      "lat": 25.71,
      "lon": -81.249
    },
    {
      "id": "LMRF1",
      "name": "Lostmans River, FL",
      "has_model": false,
      "has_realtime": true,
      "status": "active",
      "current": {
        "do": null,
        "temp": 24.1,
        "sal": 36.5
      },
      "last_observation": "2026-02-19",
      "days_of_data": 46,
      "lat": 25.556,
      "lon": -81.169
    },
    {
      "id": "BSKF1",
      "name": "Big Sable Creek, FL",
      "has_model": false,
      "has_realtime": true,
      "status": "active",
      "current": {
        "do": null,
        "temp": 22.0,
        "sal": 37.9
      },
      "last_observation": "2026-02-21",
      "days_of_data": 46,
      "lat": 25.266,
      "lon": -81.162
    },
    {
      "id": "MWQT2",
      "name": "Ship Channel, Mission-Aransas Reserve, TX",
      "has_model": false,
      "has_realtime": true,
      "status": "active",
      "current": {
        "do": 7.08,
        "temp": 20.2,
        "sal": 35.9
      },
      "last_observation": "2026-02-21",
      "days_of_data": 46,
      "currently_hypoxic": false,
      "lat": 27.838,
      "lon": -97.05
    },
    {
      "id": "42026",
      "name": "C22 - Loop Current Pressure Point Buoy, 70m Isobath",
      "has_model": false,
      "has_realtime": true,
      "status": "active",
      "current": {
        "do": null,
        "temp": 22.9,
        "sal": 36.9
      },
      "last_observation": "2026-02-21",
      "days_of_data": 46,
      "lat": 25.171,
      "lon": -83.475
    },
    {
      "id": "BKYF1",
      "name": "Buoy Key, FL",
      "has_model": false,
      "has_realtime": true,
      "status": "active",
      "current": {
        "do": null,
        "temp": 26.3,
        "sal": 38.9
      },
      "last_observation": "2026-02-21",
      "days_of_data": 46,
      "lat": 25.119,
      "lon": -80.834
    },
    {
      "id": "TPEF1",
      "name": "Tarpon Bay East, FL",
      "has_model": false,
      "has_realtime": true,
      "status": "active",
      "current": {
        "do": null,
        "temp": 25.5,
        "sal": 19.6
      },
      "last_observation": "2026-02-21",
      "days_of_data": 46,
      "lat": 25.41,
      "lon": -80.964
    }
  ],
  "summary": {
    "total_stations": 50,
    "stations_with_models": 7,
    "stations_with_realtime": 44,
    "stations_with_data": 44,
    "stations_with_predictions": 1,
    "stations_with_warnings": 0
  }
}